City_ID,City,Lat,Lng,Max Temp,Humidity,Cloudiness,Wind Speed,Country,Date
0,esperance,-33.8667,121.9,289.57,86,6,6.61,AU,1679252283
1,atuona,-9.8,-139.0333,299.92,76,12,6.83,PF,1679252284
2,dahuk,36.8695,42.994,282.84,84,1,1.84,IQ,1679252285
3,saskylakh,71.9167,114.0833,244.43,98,100,3.03,RU,1679252286
4,geraldton,-28.7667,114.6,292.38,88,0,3.6,AU,1679252286
5,moindou,-21.6924,165.677,296.9,80,0,2.73,NC,1679252287
6,ushuaia,-54.8,-68.3,277.96,75,75,12.35,AR,1679252288
7,capao bonito,-24.0058,-48.3494,300.7,54,33,1.12,BR,1679252288
8,liverpool,53.4106,-2.9779,282.93,76,40,3.13,GB,1679252195
9,butaritari,3.0707,172.7902,300.07,75,71,3.79,KI,1679252289
10,teseney,15.11,36.6575,303.28,14,22,3.95,ER,1679252290
11,rikitea,-23.1203,-134.9692,299.21,72,10,6.1,PF,1679252291
12,victoria,22.2855,114.1577,295.06,91,89,5.36,HK,1679252048
13,rio gallegos,-51.6226,-69.2181,284.18,35,75,18.01,AR,1679252292
14,busselton,-33.65,115.3333,291.74,59,80,6.1,AU,1679252293
15,urusha,54.05,122.9,268.41,100,100,0.33,RU,1679252293
16,hambantota,6.1241,81.1185,298.34,100,40,2.06,LK,1679252294
17,mangan,27.5167,88.5333,288.28,93,100,0.74,IN,1679252295
18,hermanus,-34.4187,19.2345,289.71,76,0,1.48,ZA,1679252295
19,sobolevo,54.4299,31.8996,270.74,91,100,1.98,RU,1679252296
20,jamestown,42.097,-79.2353,271.77,60,100,9.77,US,1679252102
21,gat,31.61,34.7642,285.59,100,39,7.35,IL,1679252297
22,dire dawa,9.5931,41.8661,294.1,76,30,1.11,ET,1679252298
23,sidrolandia,-20.9319,-54.9614,297.94,81,96,2.33,BR,1679252299
24,radishchevo,52.85,47.8833,273.93,97,100,2.37,RU,1679252300
25,kaitangata,-46.2817,169.8464,286.12,89,100,2.55,NZ,1679252261
26,katherine,-14.4667,132.2667,296.33,94,9,0.51,AU,1679252301
27,puerto carreno,6.189,-67.4859,307.14,38,0,5.14,CO,1679252302
28,chipinge,-20.1883,32.6236,290.74,91,98,2.5,ZW,1679252303
29,half moon bay,37.4636,-122.4286,287.82,89,100,6.17,US,1679252287
30,bluff,-46.6,168.3333,289.71,78,100,5.39,NZ,1679252304
31,novobirilyussy,56.9514,90.6661,256.78,89,100,5.17,RU,1679252306
32,albany,42.6001,-73.9662,273.68,49,100,3.13,US,1679252017
33,lamu,-2.2717,40.902,301.27,86,99,4.76,KE,1679252307
34,santa rosa,14.3122,121.1114,299.14,75,100,3.79,PH,1679252206
35,mahendragarh,28.2833,76.15,291.89,73,100,0.72,IN,1679252309
36,arlit,18.7369,7.3853,302.86,7,87,4.08,NE,1679252309
37,tasiilaq,65.6145,-37.6368,263.86,83,100,1.83,GL,1679252310
38,porto velho,-8.7619,-63.9039,301.18,78,40,2.57,BR,1679252311
39,lata,40.1629,-8.3327,286.93,84,100,1.11,PT,1679252312
40,khatanga,71.9667,102.5,235.39,99,85,3.28,RU,1679252312
41,ostrovnoy,68.0531,39.5131,266.44,87,44,5.7,RU,1679252313
42,praia,14.9215,-23.5087,300.45,50,20,6.17,CV,1679252314
43,ribeira grande,38.5167,-28.7,289.37,72,40,9.77,PT,1679252314
44,katangli,51.7102,143.2326,272.12,79,17,8.43,RU,1679252315
45,hobart,-42.8794,147.3294,282.62,73,40,3.6,AU,1679252228
46,codrington,-38.2667,141.9667,285.8,64,83,6.0,AU,1679252260
47,avarua,-21.2078,-159.775,300.18,83,44,3.6,CK,1679252316
48,clyde river,70.4692,-68.5914,248.28,77,0,6.69,CA,1679252249
49,cape town,-33.9258,18.4232,292.1,74,40,6.69,ZA,1679252317
50,bilibino,68.0546,166.4372,248.09,100,89,1.74,RU,1679252318
51,dawei,14.0833,98.2,296.74,91,18,1.08,MM,1679252319
52,saint-philippe,-21.3585,55.7679,299.92,82,100,1.27,RE,1679252320
53,vaini,-21.2,-175.2,298.24,94,75,4.63,TO,1679252196
54,cherskiy,68.75,161.3,254.77,96,98,3.4,RU,1679252321
55,arraial do cabo,-22.9661,-42.0278,305.13,70,20,7.72,BR,1679252233
56,mar del plata,-38.0023,-57.5575,296.16,78,100,4.12,AR,1679252322
57,guerrero negro,27.9769,-114.0611,296.07,28,21,1.92,MX,1679252195
58,punta arenas,-53.15,-70.9167,283.21,57,40,13.89,CL,1679252323
59,walvis bay,-22.9575,14.5053,289.87,78,1,5.72,NA,1679252325
60,marsh harbour,26.5412,-77.0636,298.04,75,100,2.84,BS,1679252326
61,upernavik,72.7868,-56.1549,246.16,98,90,5.38,GL,1679252326
62,tuktoyaktuk,69.4541,-133.0374,259.15,72,75,5.14,CA,1679252239
63,vanavara,60.34,102.2797,256.94,95,100,5.12,RU,1679252197
64,new norfolk,-42.7826,147.0587,282.43,65,43,0.45,AU,1679252328
65,bengkulu,-3.8004,102.2655,297.16,92,99,2.52,ID,1679252328
66,yellowknife,62.456,-114.3525,259.44,61,40,4.12,CA,1679252329
67,high level,58.5169,-117.136,270.21,74,0,3.09,CA,1679252103
68,klaksvik,62.2266,-6.589,276.66,60,100,3.54,FO,1679252330
69,krasnoarmeyskoye,52.7182,50.0322,273.49,94,100,4.28,RU,1679252331
70,bredasdorp,-34.5322,20.0403,292.27,80,0,1.56,ZA,1679252238
71,otesani,45.0667,24.0333,280.33,69,11,1.36,RO,1679252332
72,curup,-3.4667,102.5333,293.05,99,92,1.03,ID,1679252333
73,santarem,-2.4431,-54.7083,303.22,74,40,3.09,BR,1679252334
74,puerto ayora,-0.7393,-90.3518,303.13,82,63,4.02,EC,1679252334
75,hami,42.8,93.45,281.76,33,100,3.92,CN,1679252335
76,vardo,70.3705,31.1107,268.14,80,100,10.8,NO,1679252336
77,beringovskiy,63.05,179.3167,259.32,95,8,2.26,RU,1679252336
78,tateyama,34.9833,139.8667,286.48,56,99,3.35,JP,1679252337
79,cheremukhovo,60.3484,59.9851,268.93,79,100,4.26,RU,1679252338
80,bagdarin,54.4333,113.6,264.23,94,24,1.98,RU,1679252338
81,namibe,-15.1961,12.1522,297.35,82,100,3.9,AO,1679252063
82,east london,-33.0153,27.9116,296.67,83,75,4.63,ZA,1679252339
83,kodiak,57.79,-152.4072,271.88,80,0,1.54,US,1679252340
84,tiksi,71.6872,128.8694,246.19,96,100,6.36,RU,1679252253
85,kenora,49.8167,-94.4337,268.69,42,20,2.06,CA,1679252341
86,banjar,-8.19,114.9675,298.05,91,94,1.15,ID,1679252341
87,manono,-7.3,27.4167,294.81,92,99,1.3,CD,1679252342
88,athabasca,54.7169,-113.2854,274.38,90,100,0.41,CA,1679252343
89,acapulco,16.8634,-99.8901,302.05,65,0,4.12,MX,1679252134
90,carnarvon,-24.8667,113.6333,296.34,80,0,7.65,AU,1679252265
91,peachland,49.7665,-119.7357,283.79,54,100,1.34,CA,1679252344
92,longyearbyen,78.2186,15.6401,257.06,55,20,6.17,SJ,1679252345
93,smithers,54.7804,-127.1743,273.33,69,40,0.0,CA,1679252346
94,atlantic city,39.3643,-74.4229,277.63,32,0,9.77,US,1679252245
95,inongo,-1.95,18.2667,296.3,82,59,0.8,CD,1679252347
96,barrow,71.2906,-156.7887,250.16,77,20,7.2,US,1679252348
97,chuy,-33.6971,-53.4616,301.06,65,93,3.28,UY,1679252268
98,jutai,-5.1833,-68.9,303.0,68,100,0.46,BR,1679252349
99,salalah,17.0151,54.0924,298.93,85,28,2.14,OM,1679252350
100,tornio,65.8481,24.1466,264.16,96,100,2.59,FI,1679252350
101,leh,34.1667,77.5833,268.24,84,100,0.61,IN,1679252352
102,mataura,-46.1927,168.8643,289.53,97,99,1.62,NZ,1679252353
103,aklavik,68.2191,-135.0107,259.15,72,75,4.12,CA,1679252353
104,abu zabad,12.35,29.25,301.93,11,78,4.94,SD,1679252354
105,provideniya,64.3833,-173.3,266.98,96,100,1.84,RU,1679252355
106,sinnamary,5.3833,-52.95,300.2,67,38,5.03,GF,1679252356
107,mana,5.6592,-53.7767,300.55,65,53,5.49,GF,1679252356
108,kindu,-2.95,25.95,297.09,75,100,0.6,CD,1679252357
109,luderitz,-26.6481,15.1594,290.02,87,100,1.24,NA,1679252358
110,hamilton,39.1834,-84.5333,276.62,45,75,5.66,US,1679252097
111,port augusta,-32.5,137.7667,293.35,61,100,4.5,AU,1679252359
112,nisia floresta,-6.0911,-35.2086,301.6,84,100,1.79,BR,1679252360
113,georgetown,5.4112,100.3354,302.11,89,20,0.51,MY,1679252355
114,hilo,19.7297,-155.09,303.86,68,20,4.02,US,1679252119
115,fort frances,48.5999,-93.4003,273.27,41,0,4.12,CA,1679252315
116,port elizabeth,-33.918,25.5701,295.55,91,20,6.69,ZA,1679252363
117,pevek,69.7008,170.3133,261.74,93,100,4.45,RU,1679252364
118,fairbanks,64.8378,-147.7164,274.72,71,75,2.57,US,1679252364
119,tuatapere,-46.1333,167.6833,288.49,82,100,3.97,NZ,1679252365
120,tura,25.5198,90.2201,290.02,97,100,1.16,IN,1679252365
121,songling,31.1933,120.7176,281.98,92,100,2.8,CN,1679252366
122,lages,-27.8161,-50.3261,301.0,33,2,1.42,BR,1679252367
123,lahaina,20.8783,-156.6825,299.71,75,100,3.17,US,1679252368
124,oranjestad,12.524,-70.027,302.12,61,40,8.23,AW,1679252369
125,faya,18.3851,42.4509,288.21,42,64,1.73,SA,1679252370
126,teguise,29.0605,-13.564,290.27,59,20,10.29,ES,1679252371
127,kropotkin,45.4375,40.5756,285.19,82,100,4.36,RU,1679252372
128,marawi,7.9986,124.2928,293.16,97,88,0.55,PH,1679252373
129,dikson,73.5069,80.5464,246.87,98,98,3.47,RU,1679252377
130,cayenne,4.9333,-52.3333,302.17,65,68,7.2,GF,1679252259
131,cockburn town,21.4612,-71.1419,300.13,61,40,6.17,TC,1679252378
132,ixtapa,20.7,-105.2,303.71,29,0,4.41,MX,1679252379
133,netrakona,24.8833,90.7167,291.95,98,100,2.74,BD,1679252379
134,hirara,24.8,125.2833,294.3,88,75,6.17,JP,1679252380
135,goma,-1.6792,29.2228,290.05,91,99,1.67,CD,1679252381
136,katsuura,35.1333,140.3,285.6,68,100,3.72,JP,1679252381
137,abu dhabi,24.4667,54.3667,298.68,64,0,1.03,AE,1679252097
138,souillac,-20.5167,57.5167,299.36,89,40,0.51,MU,1679252382
139,burns lake,54.2331,-125.7533,273.83,86,100,1.31,CA,1679252383
140,gushikawa,26.3544,127.8686,292.72,77,0,2.57,JP,1679252383
141,sinazongwe,-17.2614,27.4618,298.45,66,100,4.54,ZM,1679252384
142,san patricio,28.017,-97.5169,287.08,45,99,2.78,US,1679252208
143,thompson,55.7435,-97.8558,259.24,66,75,4.12,CA,1679252385
144,arcata,40.8665,-124.0828,286.04,94,100,0.0,US,1679252386
145,lebu,-37.6167,-73.65,288.78,67,7,9.06,CL,1679252387
146,nikolskoye,59.7035,30.7861,276.09,99,100,2.24,RU,1679252274
147,faanui,-16.4833,-151.75,300.94,66,99,4.76,PF,1679252388
148,ahipara,-35.1667,173.1667,287.65,84,0,1.45,NZ,1679252388
149,gamba,-2.65,10.0,299.27,83,100,2.62,GA,1679252389
150,poum,-20.2333,164.0167,299.3,75,2,4.08,NC,1679252389
151,ko samui,9.5357,99.9357,300.49,74,74,4.23,TH,1679252390
152,joshimath,30.5667,79.5667,281.39,76,90,1.61,IN,1679252391
153,ancud,-41.8697,-73.8203,287.82,58,100,2.99,CL,1679252392
154,lavrentiya,65.5833,-171.0,262.75,96,100,2.59,RU,1679252392
155,diu,20.7141,70.9822,296.8,71,2,5.49,IN,1679252393
156,diego de almagro,-26.3667,-70.05,299.23,33,5,5.82,CL,1679252393
157,colares,38.7992,-9.4469,290.24,72,20,5.14,PT,1679252394
158,chokurdakh,70.6333,147.9167,245.56,97,100,6.64,RU,1679252395
159,pierre,44.3683,-100.351,280.27,63,54,3.6,US,1679252395
160,porto santo,33.072,-16.3415,290.36,82,75,4.12,PT,1679252396
161,nome,64.5011,-165.4064,252.68,73,100,2.24,US,1679252397
162,atherton,53.5237,-2.4935,282.23,77,100,0.45,GB,1679252288
163,badiraguato,25.3667,-107.5167,302.73,23,100,2.73,MX,1679252398
164,castro,-24.7911,-50.0119,299.29,59,49,1.6,BR,1679252399
165,cabo san lucas,22.8909,-109.9124,299.05,68,10,0.89,MX,1679252261
166,kang,-23.6752,22.7876,298.45,22,0,2.94,BW,1679252400
167,kruisfontein,-34.0033,24.7314,293.35,88,100,5.78,ZA,1679252291
168,vidim,56.4088,103.1106,273.69,98,100,3.87,RU,1679252409
169,kismayo,-0.3582,42.5454,300.39,82,100,5.77,SO,1679252242
170,cabedelo,-6.9811,-34.8339,302.52,75,100,4.18,BR,1679252411
171,gao,16.6362,1.637,302.23,5,0,5.15,ML,1679252414
172,stankov,49.5535,13.0698,283.73,87,100,1.22,CZ,1679252427
173,penzance,50.1186,-5.5371,283.02,85,100,6.33,GB,1679252428
174,saint anthony,45.0205,-93.218,274.21,47,0,6.17,US,1679252163
175,neiafu,-18.65,-173.9833,294.53,94,20,0.0,TO,1679252436
176,labuhan,-6.8844,112.2051,299.02,84,100,1.9,ID,1679252438
177,port alfred,-33.5906,26.891,296.58,84,100,3.13,ZA,1679252439
178,noyabrsk,63.1994,75.4507,255.26,89,100,5.42,RU,1679252440
179,ocosingo,17.0667,-92.25,291.49,89,100,2.43,MX,1679252440
180,emba,48.8264,58.1442,271.45,77,32,6.86,KZ,1679252441
181,jacqueville,5.2052,-4.4146,300.57,82,100,6.48,CI,1679252442
182,ponta do sol,32.6667,-17.1,292.66,79,74,1.31,PT,1679252442
183,hithadhoo,-0.6,73.0833,300.85,76,100,2.19,MV,1679252194
184,esso,55.9333,158.7,259.62,96,100,1.56,RU,1679252444
185,taraz,42.9,71.3667,275.38,87,92,2.0,KZ,1679252388
186,bambous virieux,-20.3428,57.7575,299.29,89,40,0.51,MU,1679252259
187,avera,33.194,-82.5271,285.12,26,77,5.11,US,1679252445
188,sirjan,29.452,55.6814,287.65,22,0,2.38,IR,1679252447
189,kamenka,51.3223,42.7678,278.02,83,0,3.81,RU,1679252447
190,teya,60.3778,92.6267,253.7,95,100,3.25,RU,1679252449
191,hay river,60.8156,-115.7999,264.13,73,20,4.63,CA,1679252190
192,hatsukaichi,34.35,132.3333,281.12,72,45,0.92,JP,1679252450
193,bonfim,3.0833,-59.95,309.79,23,7,4.52,BR,1679252451
194,sergeyevka,53.88,67.4158,254.87,98,29,1.91,KZ,1679252452
195,severo-kurilsk,50.6789,156.125,269.15,86,100,5.37,RU,1679252453
196,kahului,20.8947,-156.47,299.73,76,100,2.35,US,1679252453
197,qaanaaq,77.484,-69.3632,250.47,68,14,2.91,GL,1679252454
198,miri,4.4148,114.0089,299.23,94,40,1.03,MY,1679252455
199,ladario,-19.0047,-57.6017,301.31,74,75,3.6,BR,1679252456
200,novikovo,51.1537,37.8879,274.08,98,100,2.35,RU,1679252457
201,cairns,-16.9167,145.7667,298.12,91,71,4.63,AU,1679252381
202,leningradskiy,69.3833,178.4167,262.7,89,100,0.97,RU,1679252458
203,pringsewu,-5.3582,104.9744,296.0,98,100,0.33,ID,1679252458
204,moree,-29.4667,149.85,296.15,52,72,5.37,AU,1679252459
205,caravelas,-17.7125,-39.2481,300.89,65,9,3.36,BR,1679252459
206,genhe,50.7833,121.5167,258.35,100,97,0.59,CN,1679252460
207,pacific grove,36.6177,-121.9166,287.78,87,100,7.6,US,1679252308
208,bethel,41.3712,-73.414,276.98,42,100,2.68,US,1679252461
209,bukachacha,52.9833,116.9167,265.75,97,100,0.63,RU,1679252462
210,slave lake,55.2834,-114.769,267.14,79,0,2.06,CA,1679252463
211,dingle,10.9995,122.6711,296.42,93,100,3.34,PH,1679252464
212,hobbs,32.7026,-103.136,285.82,21,100,4.47,US,1679252465
213,hun,29.1268,15.9477,295.09,21,100,8.96,LY,1679252465
214,hue,16.4667,107.6,296.21,94,40,1.03,VN,1679252468
215,hobyo,5.3505,48.5268,301.23,75,100,4.46,SO,1679252469
216,mahebourg,-20.4081,57.7,299.31,89,40,0.51,MU,1679252470
217,jarwal,27.1667,81.55,292.3,76,100,4.88,IN,1679252470
218,itarema,-2.9248,-39.9167,300.04,77,94,5.04,BR,1679252471
219,rawlins,41.7911,-107.2387,274.09,37,0,13.89,US,1679252472
220,batagay-alyta,67.8006,130.4114,245.98,98,100,1.23,RU,1679252473
221,tabou,4.423,-7.3528,300.17,79,49,4.33,CI,1679252474
222,airai,-8.9266,125.4092,287.73,93,100,0.95,TL,1679252475
223,berlevag,70.8578,29.0864,272.15,74,100,9.77,NO,1679252476
224,fort nelson,58.8053,-122.7002,275.9,47,20,2.06,CA,1679252476
225,yulara,-25.2406,130.9889,301.22,33,75,4.31,AU,1679252477
226,benjamin constant,-4.3831,-70.0311,300.22,83,20,2.57,BR,1679252478
227,shingu,33.7333,135.9833,281.27,76,100,2.24,JP,1679252479
228,atambua,-9.1061,124.8925,295.49,90,98,1.87,ID,1679252479
229,sakaiminato,35.55,133.2333,276.14,100,20,2.57,JP,1679252480
230,nanortalik,60.1432,-45.2371,274.23,69,100,2.63,GL,1679252481
231,nepomuceno,-21.2358,-45.2358,298.81,64,100,0.01,BR,1679252482
232,casper,42.8666,-106.3131,274.83,43,0,8.89,US,1679252482
233,sur,22.5667,59.5289,299.1,32,100,4.59,OM,1679252483
234,matara,5.9485,80.5353,298.36,86,5,0.87,LK,1679252247
235,pisco,-13.7,-76.2167,300.18,61,0,4.63,PE,1679252485
236,dimbokro,6.6451,-4.7048,300.85,63,52,2.91,CI,1679252486
237,namatanai,-3.6667,152.4333,298.83,84,72,1.85,PG,1679252487
238,vila velha,-20.3297,-40.2925,303.12,75,20,5.66,BR,1679252487
239,rabo de peixe,37.8,-25.5833,288.88,82,20,6.17,PT,1679252488
240,hasaki,35.7333,140.8333,281.05,64,100,4.02,JP,1679252489
241,narsaq,60.9167,-46.05,273.46,70,100,3.16,GL,1679252490
242,hofn,64.2539,-15.2082,268.72,65,20,7.21,IS,1679252491
243,stonewall,50.1344,-97.3268,270.94,88,74,4.84,CA,1679252492
244,ponta delgada,37.7333,-25.6667,289.55,82,20,6.17,PT,1679252493
245,nemuro,43.3236,145.575,274.3,76,94,5.76,JP,1679252494
246,tikapur,28.5,81.1333,291.49,72,100,2.16,NP,1679252494
247,saint-leu,-21.15,55.2833,299.63,97,100,2.39,RE,1679252291
248,mathbaria,22.2876,89.9593,293.97,88,100,3.52,BD,1679252495
249,khani,41.9563,42.9566,278.91,86,100,1.26,GE,1679252496
250,tessalit,20.1986,1.0114,302.48,7,0,5.06,ML,1679252497
251,muisne,0.6,-80.0333,301.74,71,98,3.4,EC,1679252497
252,kirakira,-10.4544,161.9205,299.26,82,12,0.74,SB,1679252498
253,port hawkesbury,45.6169,-61.3485,280.88,52,0,5.14,CA,1679252499
254,sychevka,55.8252,34.2736,269.01,92,100,2.5,RU,1679252499
255,rosehearty,57.697,-2.1132,278.86,81,100,1.98,GB,1679252500
256,opuwo,-18.0607,13.84,296.14,34,100,4.64,NA,1679252501
257,fortuna,40.5982,-124.1573,285.89,89,100,6.69,US,1679252502
258,comodoro rivadavia,-45.8667,-67.5,295.07,16,0,6.69,AR,1679252458
259,banikoara,11.2985,2.4386,305.16,31,95,3.13,BJ,1679252503
260,constitucion,-35.3333,-72.4167,294.97,60,11,7.18,CL,1679252455
261,batman,37.8874,41.1322,283.04,81,75,2.57,TR,1679252260
262,saint-pierre,-21.3393,55.4781,299.97,74,75,1.54,RE,1679252504
263,broome,42.2506,-75.833,274.1,52,100,4.47,US,1679252505
264,cody,44.5263,-109.0565,280.27,16,0,6.69,US,1679252468
265,nieuwpoort,51.1244,2.7735,281.56,87,75,2.06,BE,1679252506
266,cape canaveral,28.4058,-80.6048,290.92,69,75,7.2,US,1679252273
267,lodja,-3.4833,23.4333,293.79,90,62,0.98,CD,1679252507
268,santander jimenez,24.2167,-98.4667,283.67,58,100,4.71,MX,1679252508
269,aguimes,27.9054,-15.4461,291.29,63,20,10.8,ES,1679252508
270,koungou,-12.7336,45.2042,300.99,78,0,2.57,YT,1679252509
271,dunedin,-45.8742,170.5036,287.87,80,100,2.67,NZ,1679252476
272,bonnyville,54.2668,-110.735,274.77,86,100,2.0,CA,1679252431
273,jiaohe,43.7286,127.3447,274.51,47,6,1.54,CN,1679252510
274,kapaa,22.0752,-159.319,297.14,87,100,5.14,US,1679252511
275,atar,20.5169,-13.0499,308.18,24,0,2.06,MR,1679252515
276,goderich,43.7501,-81.7165,273.66,59,100,7.2,CA,1679252516
277,mayumba,-3.432,10.6554,298.98,86,100,1.35,GA,1679252516
278,sept-iles,50.2001,-66.3821,274.85,69,75,9.26,CA,1679252517
279,umm kaddadah,13.6017,26.6876,300.32,11,15,6.22,SD,1679252518
280,yar-sale,66.8333,70.8333,265.83,94,100,11.06,RU,1679252518
281,zhigansk,66.7697,123.3711,235.72,99,25,3.32,RU,1679252367
282,yalta,44.5,34.1667,281.14,88,9,0.78,UA,1679252520
283,saldanha,-33.0117,17.9442,292.18,84,0,6.64,ZA,1679252521
284,koppal,15.35,76.15,296.87,44,6,5.95,IN,1679252521
285,talnakh,69.4865,88.3972,245.21,97,100,5.04,RU,1679252522
286,skjervoy,70.0311,20.9714,271.15,62,100,7.63,NO,1679252523
287,norman wells,65.282,-126.8329,266.17,63,75,4.12,CA,1679252524
288,coahuayana,18.7333,-103.6833,304.96,28,0,3.89,MX,1679252524
289,bubaque,11.2833,-15.8333,297.93,78,7,7.36,GW,1679252525
290,beira,-19.8436,34.8389,297.2,94,0,2.06,MZ,1679252525
291,weligama,5.9667,80.4167,298.55,85,5,0.82,LK,1679252247
292,basoko,1.2391,23.616,295.4,82,100,0.87,CD,1679252526
293,rivadavia,-33.1905,-68.4608,297.19,54,95,5.07,AR,1679252474
294,ylojarvi,61.5563,23.5961,272.4,95,0,4.02,FI,1679252528
295,sisimiut,66.9395,-53.6735,270.59,83,100,0.76,GL,1679252528
296,locri,38.2414,16.2623,288.33,85,100,1.42,IT,1679252529
297,cidreira,-30.1811,-50.2056,298.79,69,100,4.19,BR,1679252499
298,lagunas,-5.2269,-75.6753,307.74,42,91,1.56,PE,1679252530
299,pochutla,15.7432,-96.4661,305.57,45,100,4.45,MX,1679252531
300,havoysund,70.9963,24.6622,273.28,93,100,2.61,NO,1679252531
301,moissac,44.1024,1.0945,285.08,82,92,3.46,FR,1679252532
302,jeremie,18.65,-74.1167,299.76,70,30,1.44,HT,1679252533
303,altamira,-3.2033,-52.2064,306.2,49,40,3.6,BR,1679252287
304,abalak,58.1286,68.5944,264.63,89,100,2.18,RU,1679252536
305,lagoa,39.05,-27.9833,287.31,78,0,12.28,PT,1679252537
306,kimbe,-5.5502,150.1429,297.14,93,91,1.2,PG,1679252538
307,mount isa,-20.7333,139.5,295.02,78,6,2.57,AU,1679252476
308,itoman,26.1247,127.6694,293.16,74,40,2.57,JP,1679252539
309,podyuga,61.095,40.8647,270.05,96,100,2.61,RU,1679252540
310,saint george,37.1041,-113.5841,286.72,35,40,3.6,US,1679252540
311,boden,65.8252,21.6886,266.15,98,100,1.39,SE,1679252541
312,oranjemund,-28.55,16.4333,290.43,90,1,3.31,NA,1679252542
313,buzmeyin,38.0507,58.2056,288.0,72,75,0.0,TM,1679252542
314,vao,-22.6667,167.4833,298.13,78,99,10.81,NC,1679252543
315,inirida,3.8653,-67.9239,309.1,35,33,0.8,CO,1679252445
316,anadyr,64.75,177.4833,264.43,85,75,2.68,RU,1679252544
317,channel-port aux basques,47.5702,-59.1367,273.05,82,28,11.79,CA,1679252431
318,kiknur,57.3034,47.2011,264.93,98,100,2.58,RU,1679252546
319,suntar,62.1444,117.6319,254.01,95,100,3.11,RU,1679252547
320,udachnyy,66.4167,112.4,235.34,100,100,2.23,RU,1679252547
321,sitka,57.0531,-135.33,276.09,93,100,0.0,US,1679252378
322,dali,25.7,100.1833,282.58,88,88,2.3,CN,1679252549
323,itaqui,-29.1253,-56.5531,308.53,35,23,2.72,BR,1679252550
324,ha giang,22.8333,104.9833,294.68,95,100,0.69,VN,1679252550
325,nago,26.5881,127.9761,292.62,75,73,2.96,JP,1679252551
326,port said,31.2565,32.2841,288.14,72,40,8.23,EG,1679252428
327,sosva,59.1766,61.8558,269.74,78,100,3.85,RU,1679252552
328,mandalgovi,45.7625,106.2708,271.06,44,5,2.99,MN,1679252552
329,malartic,48.1335,-78.1328,262.21,83,100,4.77,CA,1679252253
330,kargil,34.5667,76.1,270.21,96,100,0.79,IN,1679252553
331,kudahuvadhoo,2.6708,72.8944,300.35,77,95,1.83,MV,1679252554
332,flinders,-34.5833,150.8552,295.47,86,98,1.79,AU,1679252555
333,esil,51.9556,66.4042,256.04,80,2,3.66,KZ,1679252556
334,barinas,8.6226,-70.2075,306.17,33,25,3.11,VE,1679252556
335,vila franca do campo,37.7167,-25.4333,289.38,86,49,5.93,PT,1679252557
336,matagami,49.7502,-77.6328,263.21,57,75,6.17,CA,1679252559
337,mount gambier,-37.8333,140.7667,285.48,65,71,5.4,AU,1679252560
338,ambilobe,-13.2,49.05,296.72,94,20,1.48,MG,1679252378
339,muros,42.7762,-9.0603,286.95,78,99,2.68,ES,1679252561
340,kitimat,54.0524,-128.6534,279.36,67,100,1.7,CA,1679252562
341,iqaluit,63.7506,-68.5145,246.0,69,0,9.77,CA,1679252562
342,alice springs,-23.7,133.8833,293.9,68,15,0.0,AU,1679252564
343,marzuq,14.4,46.4667,298.56,52,100,1.32,YE,1679252564
344,aykhal,66.0,111.5,238.86,100,100,3.35,RU,1679252565
345,bandarbeyla,9.4942,50.8122,299.9,79,100,1.57,SO,1679252566
346,kefamenanu,-9.4467,124.4781,294.31,96,94,1.58,ID,1679252566
347,naze,28.3667,129.4833,290.66,75,100,4.34,JP,1679252473
348,moose factory,51.2585,-80.6094,262.15,72,75,5.14,CA,1679252568
349,matamoros,25.5333,-103.25,284.32,50,26,4.64,MX,1679252568
350,padang,-0.9492,100.3543,298.18,88,100,1.74,ID,1679252569
351,qui nhon,13.7667,109.2333,295.48,89,99,1.77,VN,1679252569
352,torbay,47.6666,-52.7314,278.53,96,100,9.77,CA,1679252570
353,kangaatsiaq,68.3065,-53.4641,266.3,88,100,5.33,GL,1679252571
354,aloleng,16.1307,119.7824,297.3,73,100,2.62,PH,1679252572
355,abashiri,44.0213,144.2697,274.23,66,0,4.13,JP,1679252573
356,akcaabat,41.0212,39.5715,283.08,93,75,2.57,TR,1679252574
357,altayskoye,51.9533,85.3325,264.65,93,100,5.27,RU,1679252574
358,selfoss,63.9331,-20.9971,269.84,48,89,5.07,IS,1679252575
359,kamina,-8.7386,24.9906,291.12,94,52,1.38,CD,1679252576
360,rapid valley,44.0625,-103.1463,284.5,15,20,6.69,US,1679252576
361,ngunguru,-35.6167,174.5,287.97,86,22,2.56,NZ,1679252577
362,takaka,-40.85,172.8,289.02,73,40,1.44,NZ,1679252577
363,zharkent,44.1628,80.0,273.88,53,15,2.97,KZ,1679252578
364,maningrida,-12.0667,134.2667,297.35,90,100,3.11,AU,1679252579
365,san quintin,30.4833,-115.95,292.24,48,100,3.61,MX,1679252579
366,gueugnon,46.6036,4.0629,284.12,77,93,1.53,FR,1679252581
367,conselheiro pena,-19.1722,-41.4722,301.71,69,31,1.55,BR,1679252581
368,kiama,-34.6833,150.8667,295.58,87,99,0.89,AU,1679252582
369,xiaoweizhai,26.1903,107.5125,282.62,99,100,0.66,CN,1679252583
370,ballina,-28.8667,153.5667,293.71,96,9,2.89,AU,1679252584
371,navirai,-23.065,-54.1906,299.88,77,95,1.43,BR,1679252295
372,san clemente,33.427,-117.612,291.84,76,100,1.34,US,1679252585
373,mandera,3.9366,41.867,306.09,41,27,1.47,KE,1679252586
374,bongandanga,1.5,21.05,293.48,99,63,1.05,CD,1679252587
375,husavik,66.0449,-17.3389,263.78,71,100,1.48,IS,1679252588
376,malim,7.452,123.4312,299.14,81,79,4.88,PH,1679252588
377,cururupu,-1.8283,-44.8683,299.93,88,99,0.69,BR,1679252589
378,mehrabpur,28.1085,68.0254,295.55,48,0,2.76,PK,1679252464
379,catalina,32.5056,-110.9211,291.6,30,100,4.52,US,1679252590
380,turka,49.1541,23.0297,278.59,78,99,1.91,UA,1679252591
381,pella,59.7775,30.8181,276.18,99,100,2.27,RU,1679252592
382,mahon,39.8885,4.2658,285.46,87,20,3.6,ES,1679252592
383,nattarasankottai,9.8667,78.5667,301.42,68,82,4.61,IN,1679252593
384,tazmalt,36.3868,4.3989,286.73,80,100,2.57,DZ,1679252594
385,dandong,40.1292,124.3947,276.08,59,2,1.58,CN,1679252595
386,mehamn,71.0357,27.8492,272.12,93,75,6.69,NO,1679252512
387,chopan,24.5167,83.0333,294.5,67,99,2.6,IN,1679252596
388,prince george,53.9166,-122.753,277.94,61,0,3.09,CA,1679252318
389,virginia beach,36.8529,-75.978,282.06,43,20,6.17,US,1679252467
390,vikhorevka,56.1201,101.1636,274.92,92,100,4.36,RU,1679252598
391,pangnirtung,66.1451,-65.7125,250.15,77,75,5.14,CA,1679252599
392,impfondo,1.6381,18.0667,294.59,94,100,1.28,CG,1679252540
393,vanimo,-2.6741,141.3028,297.85,91,69,1.44,PG,1679252601
394,kavieng,-2.5744,150.7967,300.11,80,15,3.78,PG,1679252602
395,abu samrah,35.3029,37.1841,283.01,85,95,4.21,SY,1679252605
396,san cristobal,7.7669,-72.225,298.25,51,79,1.72,VE,1679252447
397,taltal,-25.4,-70.4833,295.21,71,33,2.07,CL,1679252426
398,bluefield,37.2698,-81.2223,272.81,51,5,0.89,US,1679252405
399,waddan,29.1614,16.139,294.61,22,99,9.3,LY,1679252608
400,formosa,-26.1775,-58.1781,308.14,45,75,4.12,AR,1679252608
401,port keats,-14.25,129.55,298.53,81,100,2.17,AU,1679252609
402,zheleznodorozhnyy,55.7503,38.0042,273.38,97,34,1.37,RU,1679252610
403,gorele,41.0308,39.0031,282.48,95,100,3.1,TR,1679252611
404,te anau,-45.4167,167.7167,287.42,88,100,2.73,NZ,1679252611
405,sol-iletsk,51.1631,54.9918,269.53,82,28,6.64,RU,1679252612
406,akonolinga,3.7667,12.25,294.27,92,100,0.86,CM,1679252613
407,keningau,5.3378,116.1602,295.6,98,97,1.1,MY,1679252614
408,manuk mangkaw,4.8,119.85,301.27,75,96,4.05,PH,1679252343
409,camocim,-2.9022,-40.8411,299.27,85,100,4.25,BR,1679252615
410,senador jose porfirio,-2.5908,-51.9542,304.07,46,5,0.72,BR,1679252616
411,balkanabat,39.5108,54.3671,289.75,46,74,3.44,TM,1679252616
412,fare,-16.7,-151.0167,300.86,71,93,4.52,PF,1679252617
413,mareeba,-17.0,145.4333,295.55,91,56,0.93,AU,1679252618
414,lar,26.2039,83.9717,293.41,79,100,3.93,IN,1679252618
415,verkhnyaya inta,65.9811,60.3094,270.02,91,100,12.21,RU,1679252619
416,bonavista,48.6499,-53.1147,275.05,98,100,8.57,CA,1679252619
417,yeppoon,-23.1333,150.7333,296.03,76,96,6.36,AU,1679252620
418,vestmanna,62.1564,-7.1664,275.66,81,75,5.14,FO,1679252621
419,ilulissat,69.2167,-51.1,270.16,54,75,0.51,GL,1679252622
420,san jeronimo,-11.9472,-75.2829,288.45,62,56,3.59,PE,1679252622
421,mahibadhoo,3.7833,72.9667,300.91,73,100,1.8,MV,1679252623
422,gimli,50.6336,-96.9907,266.16,63,100,7.2,CA,1679252431
423,luebo,-5.35,21.4167,294.12,84,100,0.6,CD,1679252624
424,la ronge,55.1001,-105.2842,262.29,57,0,4.12,CA,1679252431
425,axim,4.8699,-2.2405,300.62,80,29,4.14,GH,1679252626
426,yeniseysk,58.4497,92.1703,254.96,91,100,5.26,RU,1679252480
427,makakilo city,21.3469,-158.0858,298.71,82,80,4.14,US,1679252462
428,shubarkuduk,49.1447,56.4872,272.81,80,63,7.35,KZ,1679252628
429,inyonga,-6.7167,32.0667,291.39,95,100,1.74,TZ,1679252629
430,jalu,29.0331,21.5482,290.36,34,17,1.87,LY,1679252387
431,alofi,-19.0595,-169.9187,299.09,94,40,1.03,NU,1679252630
432,port hardy,50.6996,-127.4199,282.25,66,100,1.54,CA,1679252631
433,kot samaba,28.5522,70.4684,290.86,71,0,1.72,PK,1679252631
434,sungaipenuh,-2.0833,101.3833,291.25,97,92,1.26,ID,1679252632
435,saint-joseph,-21.3667,55.6167,299.36,82,100,1.72,RE,1679252632
436,bosaso,11.2842,49.1816,299.84,77,100,1.99,SO,1679252633
437,ueno,34.75,136.1333,278.95,56,5,0.47,JP,1679252634
438,urbino,43.7298,12.6356,284.38,84,100,1.35,IT,1679252634
439,svobodnyy,51.4,128.1333,269.87,99,100,1.76,RU,1679252635
440,karratha,-20.7377,116.8463,303.23,55,5,4.31,AU,1679252532
441,bull savanna,17.8868,-77.5902,300.3,61,0,7.37,JM,1679252636
442,khandbari,27.3747,87.2039,288.12,80,100,0.07,NP,1679252636
443,saint michael,45.21,-93.665,274.2,52,0,5.66,US,1679252637
444,bastrop,32.7562,-91.8724,281.31,38,0,5.14,US,1679252438
445,vestmannaeyjar,63.4427,-20.2734,276.7,65,40,5.14,IS,1679252638
446,saint-georges,12.0564,-61.7485,302.97,62,20,10.29,GD,1679252639
447,raudeberg,61.9875,5.1352,276.52,19,100,1.15,NO,1679252640
448,arcos de la frontera,36.7508,-5.8106,290.5,64,4,2.89,ES,1679252641
449,bud,39.447,-86.1758,275.64,49,0,4.33,US,1679252641
450,otradnoye,59.7775,30.8181,276.18,99,100,2.27,RU,1679252642
451,barnala,30.3833,75.55,291.87,54,100,1.18,IN,1679252643
452,puerto madero,14.7208,-92.4215,305.26,62,40,5.14,MX,1679252643
453,egvekinot,66.3167,-179.1667,264.06,97,100,3.92,RU,1679252645
454,poya,-21.35,165.15,296.06,86,0,2.52,NC,1679252646
455,shimoda,34.6667,138.95,280.43,64,72,1.42,JP,1679252498
456,roma,43.2128,-75.4557,272.25,65,100,8.75,US,1679252636
457,tsurugi,36.45,136.6333,273.05,57,0,1.57,JP,1679252647
458,zhenhai,24.2582,118.0905,288.53,91,100,3.6,CN,1679252648
459,general pico,-35.6566,-63.7568,301.02,45,16,3.78,AR,1679252649
460,puerto escondido,15.85,-97.0667,303.61,70,40,4.63,MX,1679252650
461,dneprovskaya,45.6236,38.8081,285.25,74,100,3.83,RU,1679252651
462,nanakuli,21.3906,-158.1547,299.51,73,40,1.54,US,1679252652
463,sakakah,29.9697,40.2064,290.91,32,0,1.88,SA,1679252653
464,sunbury,-37.5833,144.7333,288.03,87,100,5.66,AU,1679252654
465,prince rupert,54.3161,-130.3201,278.98,87,100,2.06,CA,1679252655
466,maxixe,-23.8597,35.3472,299.05,78,20,2.87,MZ,1679252655
467,kastamonu,41.5,33.6667,277.38,92,100,2.15,TR,1679252656
468,dan khun thot,15.2085,101.7714,299.28,65,13,3.82,TH,1679252656
469,kavaratti,10.5669,72.642,301.17,61,4,3.81,IN,1679252657
470,nouadhibou,20.931,-17.0347,293.14,73,0,8.23,MR,1679252658
471,buala,-8.145,159.5921,299.16,83,20,1.71,SB,1679252658
472,sairang,23.8,92.6667,291.13,98,100,0.68,IN,1679252659
473,hyvinkaa,60.6333,24.8667,274.22,91,34,0.45,FI,1679252660
474,ayan,56.45,138.1667,262.16,59,12,7.14,RU,1679252660
475,chikwawa,-16.0335,34.8009,296.48,95,100,0.93,MW,1679252661
476,werda,-25.2667,23.2833,299.41,20,100,4.28,BW,1679252662
477,nishihara,26.1842,127.7558,292.75,78,75,3.6,JP,1679252663
478,varkaus,62.3153,27.873,273.88,95,100,1.41,FI,1679252663
479,yerbogachen,61.2767,108.0108,254.69,95,100,5.58,RU,1679252664
480,yumen,40.2833,97.2,278.88,35,3,4.44,CN,1679252665
481,balabac,7.9868,117.0645,299.85,82,100,6.49,PH,1679252666
482,tynda,55.1667,124.7167,269.22,96,100,0.83,RU,1679252666
483,serra talhada,-7.9919,-38.2983,304.08,41,79,3.75,BR,1679252667
484,post falls,47.718,-116.9516,283.18,49,0,6.69,US,1679252648
485,juba,4.8517,31.5825,302.39,42,79,0.85,SS,1679252668
486,khash,28.2211,61.2158,292.04,26,88,2.38,IR,1679252669
487,palm desert,33.7222,-116.3745,297.26,29,40,2.06,US,1679252670
488,batagay,67.6333,134.6333,246.92,100,100,1.47,RU,1679252670
489,laguna,38.421,-121.4238,285.96,89,100,7.72,US,1679252671
490,boa vista,2.8197,-60.6733,306.14,40,75,4.63,BR,1679252672
491,sao gabriel da cachoeira,-0.1303,-67.0892,297.04,88,40,2.06,BR,1679252673
492,bellinzona,46.1928,9.017,286.07,62,75,1.34,CH,1679252674
493,mwandiga,-4.83,29.6581,295.81,94,40,0.0,TZ,1679252675
494,kutum,14.2,24.6667,297.98,13,24,3.63,SD,1679252676
495,zhezkazgan,47.8043,67.7144,268.54,72,100,9.74,KZ,1679252677
496,sauk rapids,45.5919,-94.1661,274.05,50,0,7.72,US,1679252677
497,soyo,-6.1349,12.3689,299.87,78,96,1.92,AO,1679252678
498,winsum,53.33,6.5208,283.7,85,25,4.05,NL,1679252679
499,tual,-5.6667,132.75,301.0,73,94,1.17,ID,1679252679
500,hurghada,27.2574,33.8129,294.17,37,0,6.69,EG,1679252594
501,palana,59.1167,159.9667,262.41,93,100,3.4,RU,1679252680
502,jiutai,44.1525,125.8328,275.34,30,6,5.11,CN,1679252681
503,zhob,31.3411,69.4481,288.72,64,0,0.52,PK,1679252682
504,sabha,27.0377,14.4283,298.17,17,17,7.31,LY,1679252683
505,wiang sa,8.6359,99.3666,296.09,89,96,0.92,TH,1679252684
506,teknaf,20.8624,92.3058,295.1,83,100,1.3,BD,1679252685
507,antigonish,45.6169,-61.9986,280.45,45,58,2.68,CA,1679252431
508,port macquarie,-31.4333,152.9167,291.42,90,12,4.63,AU,1679252461
509,moengo,5.6167,-54.4,303.51,47,18,3.58,SR,1679252686
510,qasigiannguit,68.8193,-51.1922,270.29,82,100,0.6,GL,1679252687
511,buenavista,8.9769,125.4089,296.08,93,49,2.13,PH,1679252688
512,kurilsk,45.2333,147.8833,274.74,65,59,8.28,RU,1679252688
513,lompoc,34.6391,-120.4579,287.51,76,100,6.26,US,1679252670
514,awjilah,29.1081,21.2869,290.44,34,58,2.07,LY,1679252689
515,ariquemes,-9.9133,-63.0408,300.37,75,100,2.72,BR,1679252690
516,ipixuna,-1.7625,-48.8043,300.49,81,34,2.39,BR,1679252691
517,mogwase,-25.185,27.2665,297.3,28,0,1.81,ZA,1679252483
518,tabas,33.5959,56.9244,293.97,22,39,2.55,IR,1679252692
519,aberdeen,57.1437,-2.0981,281.59,81,100,4.12,GB,1679252452
520,carauari,-4.8828,-66.8958,303.65,64,100,0.95,BR,1679252693
521,tabory,58.5198,64.5495,269.04,77,100,4.33,RU,1679252694
522,moron,-34.6534,-58.6198,308.16,59,42,1.77,AR,1679252624
523,marsabit,2.3284,37.9899,296.82,47,100,2.32,KE,1679252695
524,road town,18.4167,-64.6167,300.17,65,40,6.17,VG,1679252696
525,sao filipe,14.8961,-24.4956,297.14,68,4,7.02,CV,1679252698
526,snezhnogorsk,69.1933,33.2531,264.03,88,100,3.79,RU,1679252701
527,yamada,39.4667,141.95,278.31,77,12,2.87,JP,1679252703
528,upata,8.0086,-62.3989,306.84,24,61,3.74,VE,1679252704
529,freeport,40.6576,-73.5832,278.41,33,0,8.75,US,1679252705
530,teixoso,40.3145,-7.4576,286.35,68,31,1.77,PT,1679252706
531,praya,14.9215,-23.5087,299.45,50,0,4.12,CV,1679252707
532,petropavlovsk-kamchatskiy,53.0452,158.6483,262.48,79,20,2.0,RU,1679252707
533,kenai,60.5544,-151.2583,274.18,64,75,3.6,US,1679252708
534,ninotsminda,41.2646,43.5916,275.45,94,100,2.53,GE,1679252709
535,truro,50.2653,-5.0544,283.06,80,75,4.63,GB,1679252710
536,baruun-urt,46.6806,113.2792,270.78,38,0,4.18,MN,1679252711
537,sioux lookout,50.1001,-91.917,267.19,49,75,3.09,CA,1679252711
538,zabol,32.25,67.25,284.9,43,0,5.03,AF,1679252713
539,casablanca,33.5928,-7.6192,290.34,72,0,4.12,MA,1679252714
540,christchurch,-43.5333,172.6333,286.71,88,20,2.06,NZ,1679252472
541,kez,57.8979,53.7152,269.25,94,100,3.2,RU,1679252716
542,tromso,69.6496,18.957,271.16,64,0,1.54,NO,1679252717
543,talcahuano,-36.7167,-73.1167,295.97,49,0,6.69,CL,1679252717
544,daru,-9.0763,143.2092,299.35,84,100,2.43,PG,1679252718
